[
  {
    "city": "Kyiv", 
    "lat": "50.4500", 
    "lng": "30.5236", 
    "country": "Ukraine", 
    "iso2": "UA", 
    "admin_name": "Kyyiv, Misto", 
    "capital": "primary", 
    "population": "2963199", 
    "population_proper": "2963199"
  }, 
  {
    "city": "Kharkiv", 
    "lat": "50.0000", 
    "lng": "36.2292", 
    "country": "Ukraine", 
    "iso2": "UA", 
    "admin_name": "Kharkivs’ka Oblast’", 
    "capital": "admin", 
    "population": "1446107", 
    "population_proper": "1446107"
  }, 
  {
    "city": "Odesa", 
    "lat": "46.4775", 
    "lng": "30.7326", 
    "country": "Ukraine", 
    "iso2": "UA", 
    "admin_name": "Odes’ka Oblast’", 
    "capital": "admin", 
    "population": "1017699", 
    "population_proper": "1017699"
  }, 
  {
    "city": "Dnipro", 
    "lat": "48.4500", 
    "lng": "34.9833", 
    "country": "Ukraine", 
    "iso2": "UA", 
    "admin_name": "Dnipropetrovs’ka Oblast’", 
    "capital": "admin", 
    "population": "1002111", 
    "population_proper": "1002111"
  }, 
  {
    "city": "Donetsk", 
    "lat": "48.0089", 
    "lng": "37.8042", 
    "country": "Ukraine", 
    "iso2": "UA", 
    "admin_name": "Donets’ka Oblast’", 
    "capital": "admin", 
    "population": "929063", 
    "population_proper": "929063"
  }, 
  {
    "city": "Zaporizhzhia", 
    "lat": "47.8378", 
    "lng": "35.1383", 
    "country": "Ukraine", 
    "iso2": "UA", 
    "admin_name": "Zaporiz’ka Oblast’", 
    "capital": "admin", 
    "population": "741717", 
    "population_proper": "741717"
  }, 
  {
    "city": "Lviv", 
    "lat": "49.8419", 
    "lng": "24.0315", 
    "country": "Ukraine", 
    "iso2": "UA", 
    "admin_name": "L’vivs’ka Oblast’", 
    "capital": "admin", 
    "population": "724314", 
    "population_proper": "724314"
  }, 
  {
    "city": "Kryvyi Rih", 
    "lat": "47.9086", 
    "lng": "33.3433", 
    "country": "Ukraine", 
    "iso2": "UA", 
    "admin_name": "Dnipropetrovs’ka Oblast’", 
    "capital": "minor", 
    "population": "629695", 
    "population_proper": "629695"
  }, 
  {
    "city": "Mykolaiv", 
    "lat": "46.9667", 
    "lng": "32.0000", 
    "country": "Ukraine", 
    "iso2": "UA", 
    "admin_name": "Mykolayivs’ka Oblast’", 
    "capital": "admin", 
    "population": "498748", 
    "population_proper": "498748"
  }, 
  {
    "city": "Mariupol", 
    "lat": "47.1306", 
    "lng": "37.5639", 
    "country": "Ukraine", 
    "iso2": "UA", 
    "admin_name": "Donets’ka Oblast’", 
    "capital": "", 
    "population": "449498", 
    "population_proper": "449498"
  }, 
  {
    "city": "Sevastopol", 
    "lat": "44.6000", 
    "lng": "33.5333", 
    "country": "Ukraine", 
    "iso2": "UA", 
    "admin_name": "Sevastopol’, Misto", 
    "capital": "admin", 
    "population": "428753", 
    "population_proper": "428753"
  }, 
  {
    "city": "Luhansk", 
    "lat": "48.5833", 
    "lng": "39.3333", 
    "country": "Ukraine", 
    "iso2": "UA", 
    "admin_name": "Luhans’ka Oblast’", 
    "capital": "admin", 
    "population": "417990", 
    "population_proper": "417990"
  }, 
  {
    "city": "Vinnytsia", 
    "lat": "49.2372", 
    "lng": "28.4672", 
    "country": "Ukraine", 
    "iso2": "UA", 
    "admin_name": "Vinnyts’ka Oblast’", 
    "capital": "admin", 
    "population": "371855", 
    "population_proper": "371855"
  }, 
  {
    "city": "Makiivka", 
    "lat": "48.0556", 
    "lng": "37.9611", 
    "country": "Ukraine", 
    "iso2": "UA", 
    "admin_name": "Donets’ka Oblast’", 
    "capital": "", 
    "population": "347376", 
    "population_proper": "347376"
  }, 
  {
    "city": "Simferopol", 
    "lat": "44.9484", 
    "lng": "34.1000", 
    "country": "Ukraine", 
    "iso2": "UA", 
    "admin_name": "Krym, Avtonomna Respublika", 
    "capital": "admin", 
    "population": "341799", 
    "population_proper": "341799"
  }, 
  {
    "city": "Poltava", 
    "lat": "49.5744", 
    "lng": "34.5686", 
    "country": "Ukraine", 
    "iso2": "UA", 
    "admin_name": "Poltavs’ka Oblast’", 
    "capital": "admin", 
    "population": "317847", 
    "population_proper": "286588"
  }, 
  {
    "city": "Chernihiv", 
    "lat": "51.4939", 
    "lng": "31.2947", 
    "country": "Ukraine", 
    "iso2": "UA", 
    "admin_name": "Chernihivs’ka Oblast’", 
    "capital": "admin", 
    "population": "294522", 
    "population_proper": "294522"
  }, 
  {
    "city": "Kherson", 
    "lat": "46.6333", 
    "lng": "32.6000", 
    "country": "Ukraine", 
    "iso2": "UA", 
    "admin_name": "Khersons’ka Oblast’", 
    "capital": "admin", 
    "population": "291428", 
    "population_proper": "291428"
  }, 
  {
    "city": "Cherkasy", 
    "lat": "49.4444", 
    "lng": "32.0597", 
    "country": "Ukraine", 
    "iso2": "UA", 
    "admin_name": "Cherkas’ka Oblast’", 
    "capital": "admin", 
    "population": "276360", 
    "population_proper": "276360"
  }, 
  {
    "city": "Khmelnytskyi", 
    "lat": "49.4200", 
    "lng": "27.0000", 
    "country": "Ukraine", 
    "iso2": "UA", 
    "admin_name": "Khmel’nyts’ka Oblast’", 
    "capital": "admin", 
    "population": "274176", 
    "population_proper": "274176"
  }, 
  {
    "city": "Zhytomyr", 
    "lat": "50.2544", 
    "lng": "28.6578", 
    "country": "Ukraine", 
    "iso2": "UA", 
    "admin_name": "Zhytomyrs’ka Oblast’", 
    "capital": "admin", 
    "population": "266936", 
    "population_proper": "266936"
  }, 
  {
    "city": "Chernivtsi", 
    "lat": "48.2908", 
    "lng": "25.9344", 
    "country": "Ukraine", 
    "iso2": "UA", 
    "admin_name": "Chernivets’ka Oblast’", 
    "capital": "admin", 
    "population": "266550", 
    "population_proper": "266550"
  }, 
  {
    "city": "Sumy", 
    "lat": "50.9068", 
    "lng": "34.7992", 
    "country": "Ukraine", 
    "iso2": "UA", 
    "admin_name": "Sums’ka Oblast’", 
    "capital": "admin", 
    "population": "265758", 
    "population_proper": "265758"
  }, 
  {
    "city": "Horlivka", 
    "lat": "48.3336", 
    "lng": "38.0925", 
    "country": "Ukraine", 
    "iso2": "UA", 
    "admin_name": "Donets’ka Oblast’", 
    "capital": "minor", 
    "population": "256714", 
    "population_proper": "256714"
  }, 
  {
    "city": "Rivne", 
    "lat": "50.6197", 
    "lng": "26.2514", 
    "country": "Ukraine", 
    "iso2": "UA", 
    "admin_name": "Rivnens’ka Oblast’", 
    "capital": "admin", 
    "population": "245630", 
    "population_proper": "245630"
  }, 
  {
    "city": "Ivano-Frankivsk", 
    "lat": "48.9228", 
    "lng": "24.7106", 
    "country": "Ukraine", 
    "iso2": "UA", 
    "admin_name": "Ivano-Frankivs’ka Oblast’", 
    "capital": "admin", 
    "population": "236602", 
    "population_proper": "236602"
  }, 
  {
    "city": "Kamianske", 
    "lat": "48.5076", 
    "lng": "34.6132", 
    "country": "Ukraine", 
    "iso2": "UA", 
    "admin_name": "Dnipropetrovs’ka Oblast’", 
    "capital": "minor", 
    "population": "235066", 
    "population_proper": "235066"
  }, 
  {
    "city": "Kremenchuk", 
    "lat": "49.0775", 
    "lng": "33.4239", 
    "country": "Ukraine", 
    "iso2": "UA", 
    "admin_name": "Poltavs’ka Oblast’", 
    "capital": "minor", 
    "population": "234073", 
    "population_proper": "234073"
  }, 
  {
    "city": "Kropyvnytskyi", 
    "lat": "48.5103", 
    "lng": "32.2667", 
    "country": "Ukraine", 
    "iso2": "UA", 
    "admin_name": "Kirovohrads’ka Oblast’", 
    "capital": "admin", 
    "population": "227413", 
    "population_proper": "227413"
  }, 
  {
    "city": "Ternopil", 
    "lat": "49.5667", 
    "lng": "25.6000", 
    "country": "Ukraine", 
    "iso2": "UA", 
    "admin_name": "Ternopil’s’ka Oblast’", 
    "capital": "admin", 
    "population": "218653", 
    "population_proper": "218653"
  }, 
  {
    "city": "Lutsk", 
    "lat": "50.7478", 
    "lng": "25.3244", 
    "country": "Ukraine", 
    "iso2": "UA", 
    "admin_name": "Volyns’ka Oblast’", 
    "capital": "admin", 
    "population": "216505", 
    "population_proper": "216505"
  }, 
  {
    "city": "Bila Tserkva", 
    "lat": "49.7956", 
    "lng": "30.1167", 
    "country": "Ukraine", 
    "iso2": "UA", 
    "admin_name": "Kyyivs’ka Oblast’", 
    "capital": "minor", 
    "population": "208944", 
    "population_proper": "208944"
  }, 
  {
    "city": "Kramatorsk", 
    "lat": "48.7208", 
    "lng": "37.5556", 
    "country": "Ukraine", 
    "iso2": "UA", 
    "admin_name": "Donets’ka Oblast’", 
    "capital": "", 
    "population": "159445", 
    "population_proper": "159445"
  }, 
  {
    "city": "Melitopol", 
    "lat": "46.8333", 
    "lng": "35.3667", 
    "country": "Ukraine", 
    "iso2": "UA", 
    "admin_name": "Zaporiz’ka Oblast’", 
    "capital": "minor", 
    "population": "154992", 
    "population_proper": "154992"
  }, 
  {
    "city": "Sievierodonetsk", 
    "lat": "48.9500", 
    "lng": "38.4833", 
    "country": "Ukraine", 
    "iso2": "UA", 
    "admin_name": "Luhans’ka Oblast’", 
    "capital": "minor", 
    "population": "150000", 
    "population_proper": "150000"
  }, 
  {
    "city": "Drohobych", 
    "lat": "49.3500", 
    "lng": "23.5000", 
    "country": "Ukraine", 
    "iso2": "UA", 
    "admin_name": "L’vivs’ka Oblast’", 
    "capital": "minor", 
    "population": "124269", 
    "population_proper": "79406"
  }, 
  {
    "city": "Khrustalnyi", 
    "lat": "48.1214", 
    "lng": "38.9453", 
    "country": "Ukraine", 
    "iso2": "UA", 
    "admin_name": "Luhans’ka Oblast’", 
    "capital": "", 
    "population": "124000", 
    "population_proper": "124000"
  }, 
  {
    "city": "Uzhhorod", 
    "lat": "48.6239", 
    "lng": "22.2950", 
    "country": "Ukraine", 
    "iso2": "UA", 
    "admin_name": "Zakarpats’ka Oblast’", 
    "capital": "admin", 
    "population": "114897", 
    "population_proper": "114897"
  }, 
  {
    "city": "Berdiansk", 
    "lat": "46.7598", 
    "lng": "36.7845", 
    "country": "Ukraine", 
    "iso2": "UA", 
    "admin_name": "Zaporiz’ka Oblast’", 
    "capital": "minor", 
    "population": "114205", 
    "population_proper": "114205"
  }, 
  {
    "city": "Sloviansk", 
    "lat": "48.8700", 
    "lng": "37.6250", 
    "country": "Ukraine", 
    "iso2": "UA", 
    "admin_name": "Donets’ka Oblast’", 
    "capital": "", 
    "population": "113196", 
    "population_proper": "113196"
  }, 
  {
    "city": "Nikopol", 
    "lat": "47.5772", 
    "lng": "34.3575", 
    "country": "Ukraine", 
    "iso2": "UA", 
    "admin_name": "Dnipropetrovs’ka Oblast’", 
    "capital": "minor", 
    "population": "112102", 
    "population_proper": "112102"
  }, 
  {
    "city": "Yevpatoriia", 
    "lat": "45.2000", 
    "lng": "33.3583", 
    "country": "Ukraine", 
    "iso2": "UA", 
    "admin_name": "Krym, Avtonomna Respublika", 
    "capital": "", 
    "population": "106158", 
    "population_proper": "106158"
  }, 
  {
    "city": "Pavlohrad", 
    "lat": "48.5200", 
    "lng": "35.8700", 
    "country": "Ukraine", 
    "iso2": "UA", 
    "admin_name": "Dnipropetrovs’ka Oblast’", 
    "capital": "minor", 
    "population": "106082", 
    "population_proper": "106082"
  }
]